City_ID,City,Lat,Lng,Max Temp,Humidity,Cloudiness,Wind Speed,Country,Date
0,wailua homesteads,22.0669,-159.378,26.24,84,75,3.09,US,1691261750
1,port-aux-francais,-49.35,70.2167,2.42,72,97,13.98,TF,1691261712
2,praia da vitoria,38.7333,-27.0667,25.14,73,20,2.81,PT,1691261895
3,grytviken,-54.2811,-36.5092,-5.25,83,100,5.3,GS,1691261895
4,misratah,32.3754,15.0925,26.95,59,0,9.02,LY,1691261895
5,decazeville,44.5605,2.2509,18.38,83,100,1.66,FR,1691261896
6,fada,9.5667,8.3,21.61,94,100,1.08,NG,1691261896
7,iqaluit,63.7506,-68.5145,10.85,76,20,2.57,CA,1691261578
8,ilhabela,-23.7781,-45.3581,23.22,69,2,1.87,BR,1691261896
9,fort st. john,56.2499,-120.8529,19.94,60,20,2.06,CA,1691261703
10,maryborough,-25.5333,152.7,12.68,92,26,1.89,AU,1691261896
11,isafjordur,66.0755,-23.124,12.02,62,40,2.57,IS,1691261801
12,ilulissat,69.2167,-51.1,9.01,71,20,2.57,GL,1691261788
13,papatowai,-46.5619,169.4708,6.2,80,100,3.57,NZ,1691261711
14,waitangi,-43.9535,-176.5597,9.03,59,100,14.91,NZ,1691261735
15,margaret river,-33.95,115.0667,8.62,80,100,1.47,AU,1691261713
16,invercargill,-46.4,168.35,6.68,87,100,2.24,NZ,1691261897
17,edinburgh of the seven seas,-37.0676,-12.3116,13.45,80,8,16.55,SH,1691261712
18,manismata,-2.4667,111.0333,23.17,99,26,1.12,ID,1691261897
19,daru,-9.0763,143.2092,23.9,78,94,7.07,PG,1691261897
20,college,64.8569,-147.8028,22.89,63,40,1.54,US,1691261898
21,ushuaia,-54.8,-68.3,2.81,87,100,2.06,AR,1691261898
22,adamstown,-25.066,-130.1015,19.13,63,9,6.32,PN,1691261701
23,longyearbyen,78.2186,15.6401,10.91,87,75,4.63,SJ,1691261655
24,nova sintra,14.8667,-24.7167,22.72,79,5,6.92,CV,1691261338
25,kyaikkami,16.08,97.5675,26.57,88,100,5.56,MM,1691261898
26,vorgashor,67.5833,63.95,17.85,54,0,2.28,RU,1691261898
27,talnakh,69.4865,88.3972,13.45,52,0,0.36,RU,1691261898
28,huarmey,-10.0681,-78.1522,22.6,64,100,4.83,PE,1691261425
29,portland,45.5234,-122.6762,25.46,73,100,1.54,US,1691261497
30,east london,-33.0153,27.9116,19.52,55,0,3.09,ZA,1691261899
31,lebu,-37.6167,-73.65,12.96,70,0,2.01,CL,1691261899
32,santo antonio,-6.3106,-35.4789,28.31,57,80,6.45,BR,1691261899
33,kuta,-8.7233,115.1723,25.97,88,40,5.36,ID,1691261315
34,smithers,54.7804,-127.1743,22.18,49,40,1.03,CA,1691261700
35,tofol,5.3248,163.0078,28.1,70,40,1.25,FM,1691261900
36,okha,53.5739,142.9478,10.89,88,21,1.69,RU,1691261451
37,kodiak,57.79,-152.4072,11.73,94,100,2.57,US,1691261900
38,campbell river,50.0163,-125.2446,27.21,47,20,2.57,CA,1691261900
39,hovd,48.0056,91.6419,19.5,41,83,1.71,MN,1691261900
40,dudinka,69.4058,86.1778,13.68,61,1,2.49,RU,1691261901
41,aykhal,66.0,111.5,10.4,66,24,7.12,RU,1691261901
42,kharp,66.8014,65.8081,18.6,59,0,2.56,RU,1691261901
43,albany,42.6001,-73.9662,26.92,56,100,3.78,US,1691261725
44,crane,31.3974,-102.3501,38.04,20,0,7.01,US,1691261901
45,bethel,41.3712,-73.414,29.01,58,0,4.63,US,1691261655
46,kapuskasing,49.4169,-82.4331,22.05,43,40,1.54,CA,1691261308
47,weno,7.4515,151.8468,27.69,82,100,10.29,FM,1691261902
48,yellowknife,62.456,-114.3525,20.29,42,75,1.54,CA,1691261902
49,masterton,-40.9597,175.6575,3.27,96,21,1.14,NZ,1691261453
50,udachny,66.4167,112.4,10.25,75,98,4.69,RU,1691261902
51,puerto natales,-51.7236,-72.4875,5.39,86,100,10.16,CL,1691261902
52,petropavlovsk-kamchatsky,53.0452,158.6483,12.33,100,75,3.0,RU,1691261903
53,gorontalo,0.5412,123.0595,23.71,94,91,1.7,ID,1691261903
54,kailua-kona,19.6406,-155.9956,28.06,76,20,2.57,US,1691261702
55,kunszentmiklos,47.027,19.1258,22.31,91,100,3.47,HU,1691261903
56,bilibino,68.0546,166.4372,4.17,96,100,2.66,RU,1691261903
57,saint-pierre,-21.3393,55.4781,21.82,73,0,9.77,RE,1691261303
58,thompson,55.7435,-97.8558,18.09,82,75,5.66,CA,1691261903
59,teofilo otoni,-17.8575,-41.5053,28.2,31,7,3.15,BR,1691261904
60,dunedin,-45.8742,170.5036,7.11,79,11,2.24,NZ,1691261178
61,stanley,54.868,-1.6985,12.85,83,20,5.14,GB,1691261904
62,santa terezinha,-29.9002,-50.0904,18.85,85,43,3.14,BR,1691261904
63,hawaiian paradise park,19.5933,-154.9731,25.5,90,75,2.06,US,1691261904
64,washington,47.5001,-120.5015,23.97,30,100,2.73,US,1691261904
65,ouro preto do oeste,-10.7481,-62.2158,37.14,20,5,1.52,BR,1691261905
66,puerto el triunfo,13.2833,-88.55,32.06,56,85,4.45,SV,1691261905
67,kununurra,-15.7667,128.7333,23.99,38,100,3.09,AU,1691261330
68,holualoa,19.6228,-155.9522,25.43,76,20,2.57,US,1691261905
69,iskateley,67.6803,53.1512,19.77,81,17,2.91,RU,1691261729
70,kapa'a,22.0752,-159.319,26.99,84,75,3.09,US,1691261905
71,anadyr,64.75,177.4833,11.28,87,75,9.0,RU,1691261905
72,margate,51.3813,1.3862,17.17,89,47,1.79,GB,1691261906
73,atbara,17.7022,33.9864,28.87,54,100,5.08,SD,1691261906
74,gilgit,35.9221,74.3087,27.48,58,78,1.36,PK,1691261906
75,bredasdorp,-34.5322,20.0403,9.86,92,100,1.53,ZA,1691261906
76,mancio lima,-7.6142,-72.8958,33.04,55,75,1.03,BR,1691261906
77,al ghayzah,16.2079,52.176,27.28,77,93,2.42,YE,1691261906
78,olonkinbyen,70.9221,-8.7187,3.92,92,100,10.05,SJ,1691261746
79,uturoa,-16.7333,-151.4333,25.78,73,5,3.54,PF,1691261907
80,tortoli,39.9256,9.6572,24.9,36,0,9.26,IT,1691261907
81,tiksi,71.6872,128.8694,1.71,83,97,3.47,RU,1691261907
82,st. john's,47.5649,-52.7093,19.82,72,75,5.14,CA,1691261855
83,granja,-3.1203,-40.8261,34.65,36,1,3.29,BR,1691261908
84,qaqortoq,60.7167,-46.0333,9.55,73,4,0.8,GL,1691261908
85,hadibu,12.65,54.0333,25.87,78,9,7.83,YE,1691261908
86,san antonio de pale,-1.4014,5.6325,22.8,76,44,4.7,GQ,1691261716
87,utrik,11.2278,169.8474,27.92,68,96,7.57,MH,1691261717
88,salekhard,66.53,66.6019,18.94,57,0,3.36,RU,1691261908
89,colonia,50.9333,6.95,17.46,82,20,1.54,DE,1691261730
90,nemuro,43.3236,145.575,14.69,97,100,3.03,JP,1691261909
91,touros,-5.1989,-35.4608,26.86,72,100,8.04,BR,1691261909
92,susuman,62.7833,148.1667,8.07,70,23,1.21,RU,1691261909
93,avarua,-21.2078,-159.775,22.03,78,40,2.57,CK,1691261909
94,hermanus,-34.4187,19.2345,11.0,89,100,1.91,ZA,1691261910
95,tereze,43.9361,42.4434,17.3,80,0,3.72,RU,1691261910
96,tura,25.5198,90.2201,24.04,98,100,1.76,IN,1691261731
97,la paz,-16.5,-68.15,13.99,44,40,5.14,BO,1691261910
98,rio grande,-32.035,-52.0986,19.06,65,0,3.78,BR,1691261910
99,arteche,12.2645,125.4048,27.19,78,94,4.2,PH,1691261910
100,vila franca do campo,37.7167,-25.4333,23.23,71,100,2.82,PT,1691261911
101,lagunas,-5.2269,-75.6753,33.99,42,61,0.88,PE,1691261911
102,west island,-12.1568,96.8225,24.99,88,75,7.2,CC,1691261721
103,hamilton,39.1834,-84.5333,30.33,63,0,4.12,US,1691261062
104,hanzhong,33.0728,107.0303,24.16,91,74,0.56,CN,1691261911
105,sandnessjoen,66.0217,12.6316,13.29,71,76,1.25,NO,1691261313
106,kingston,17.997,-76.7936,34.58,68,20,11.83,JM,1691261798
107,esquel,-42.9,-71.3167,5.9,76,19,2.23,AR,1691261360
108,howrah,22.5892,88.3103,29.0,84,75,3.6,IN,1691261912
109,mont-dore,-22.2833,166.5833,20.56,99,28,4.63,NC,1691261912
110,arraial do cabo,-22.9661,-42.0278,24.98,78,0,5.14,BR,1691261912
111,estreito,-5.7833,-43.25,36.43,23,19,3.11,BR,1691261912
112,luderitz,-26.6481,15.1594,14.68,76,30,3.48,NA,1691261912
113,chibougamau,49.9168,-74.3659,20.79,49,75,5.14,CA,1691261436
114,malpica,43.3228,-8.8105,20.13,77,92,6.36,ES,1691261913
115,blumenau,-26.9194,-49.0661,28.38,73,0,2.68,BR,1691261913
116,coquimbo,-29.9533,-71.3436,14.85,88,100,4.63,CL,1691261678
117,blackmans bay,-43.0167,147.3167,8.62,86,93,2.79,AU,1691261711
118,greymouth,-42.4667,171.2,8.89,92,100,1.04,NZ,1691261886
119,lihue,21.9789,-159.3672,26.58,79,75,3.09,US,1691261913
120,kibuye,-2.0597,29.3482,21.78,55,73,0.65,RW,1691261913
121,maceio,-9.6658,-35.7353,27.69,69,40,5.66,BR,1691261354
122,ust-nera,64.5667,143.2,12.99,68,100,2.26,RU,1691261914
123,auki,-8.7676,160.7034,23.96,93,100,3.67,SB,1691261914
124,oranjemund,-28.55,16.4333,13.09,82,31,2.48,NA,1691261435
125,floro,61.5996,5.0328,15.04,63,78,5.14,NO,1691261448
126,port alfred,-33.5906,26.891,20.44,50,1,3.6,ZA,1691261657
127,labrador city,52.9463,-66.9114,15.95,82,75,2.57,CA,1691261914
128,codrington,-38.2667,141.9667,8.37,81,33,1.64,AU,1691261915
129,inirida,3.8653,-67.9239,31.62,61,49,0.31,CO,1691261915
130,georgetown,5.4112,100.3354,27.75,92,20,1.54,MY,1691261868
131,richards bay,-28.783,32.0377,19.03,74,18,4.6,ZA,1691261448
132,grand gaube,-20.0064,57.6608,22.43,69,1,5.36,MU,1691261915
133,enewetak,11.3474,162.3373,28.43,75,100,6.14,MH,1691261915
134,whangarei,-35.7317,174.3239,8.57,97,51,0.63,NZ,1691261915
135,newman,37.3138,-121.0208,31.7,19,0,2.14,US,1691261916
136,peterhead,57.5058,-1.7981,13.58,69,100,3.02,GB,1691261916
137,as sulayyil,20.4607,45.5779,38.14,10,100,2.07,SA,1691261916
138,tazacorte,28.629,-17.9293,24.53,79,20,7.72,ES,1691261916
139,san benedetto po,45.0382,10.9314,23.33,77,93,2.81,IT,1691261916
140,moscow,55.7522,37.6156,23.24,56,2,1.53,RU,1691261568
141,klyuchi,52.2667,79.1667,19.4,68,89,1.81,RU,1691261916
142,sakakah,29.9697,40.2064,33.76,13,0,3.51,SA,1691261917
143,aasiaat,68.7098,-52.8699,1.87,93,86,2.63,GL,1691261876
144,levuka,50.1834,-105.4011,22.9,30,34,4.77,CA,1691261917
145,barreirinhas,-2.7469,-42.8264,29.49,63,100,4.81,BR,1691261917
146,peniche,39.3558,-9.3811,23.09,80,0,7.78,PT,1691261917
147,nadi,-17.8,177.4167,21.0,94,75,5.14,FJ,1691261452
148,geraldton,-28.7667,114.6,10.23,93,10,3.6,AU,1691261431
149,urangan,-25.3,152.9,17.04,77,24,4.6,AU,1691261918
150,saraykoy,37.9245,28.9252,30.13,47,0,2.88,TR,1691261918
151,sinabang,2.4803,96.3801,26.88,85,100,1.88,ID,1691261918
152,yengema,8.7167,-11.1667,22.64,98,98,1.48,SL,1691261919
153,haiku-pauwela,20.9219,-156.3051,26.76,64,20,8.23,US,1691261919
154,sereflikochisar,38.9393,33.5386,27.69,22,0,2.18,TR,1691261919
155,salalah,17.0151,54.0924,26.05,100,100,2.57,OM,1691261433
156,zhangatas,43.5667,69.75,27.62,29,100,3.02,KZ,1691261919
157,conde,-7.2597,-34.9075,27.7,65,40,7.2,BR,1691261920
158,ribeira grande,38.5167,-28.7,24.22,78,75,3.6,PT,1691261920
159,port elizabeth,-33.918,25.5701,20.05,82,0,1.54,ZA,1691261920
160,gadzhiyevo,69.2551,33.3362,10.79,95,100,6.12,RU,1691261920
161,ta`u,-14.2336,-169.5144,26.89,78,99,5.2,AS,1691261920
162,port mathurin,-19.6833,63.4167,22.87,74,56,11.72,MU,1691261920
163,onguday,50.75,86.15,13.27,92,38,0.64,RU,1691261362
164,taksimo,56.3444,114.8794,17.51,68,100,0.87,RU,1691261439
165,buka,40.8108,69.1986,26.6,24,1,2.34,UZ,1691261921
166,prymors'k,46.7348,36.3443,29.48,43,0,6.49,UA,1691261921
167,saipan,15.1355,145.701,28.39,100,0,1.54,MP,1691261921
168,dourados,-22.2211,-54.8056,30.8,23,0,3.33,BR,1691261921
169,mejit,10.2753,170.8646,27.72,76,100,6.64,MH,1691261921
170,shalqar,47.8333,59.6,28.99,31,50,5.72,KZ,1691261922
171,sinnar,13.5691,33.5672,25.63,65,100,7.82,SD,1691261922
172,mufumbwe,-13.6833,24.8,15.3,41,0,2.43,ZM,1691261922
173,tafuna,-14.3358,-170.72,25.97,94,20,2.06,AS,1691261922
174,richfield,44.8833,-93.283,29.76,57,100,3.6,US,1691261776
175,mugia,43.1041,-9.2179,24.39,88,67,9.0,ES,1691261368
176,hasaki,35.7333,140.8333,26.84,90,0,4.87,JP,1691261923
177,yuzhno-kurilsk,44.0306,145.8556,13.38,97,100,4.25,RU,1691261328
178,yangquan,37.8575,113.5633,22.69,93,14,1.65,CN,1691261923
179,sao vicente,-23.9631,-46.3919,32.1,41,0,3.09,BR,1691261923
180,constantia,44.1833,28.65,24.38,84,0,4.44,RO,1691261646
181,el calafate,-50.3408,-72.2768,3.12,79,11,4.83,AR,1691261333
182,sisimiut,66.9395,-53.6735,7.86,73,16,3.47,GL,1691261424
183,saldanha,-33.0117,17.9442,10.03,89,100,1.76,ZA,1691261924
184,carepa,7.7585,-76.6525,29.88,84,40,0.0,CO,1691261924
185,carutapera,-1.195,-46.02,29.23,68,56,4.56,BR,1691261827
186,newport,51.5877,-2.9984,16.57,75,6,8.18,GB,1691261924
187,porto murtinho,-21.6989,-57.8825,37.57,15,0,2.28,BR,1691261725
188,antsiranana,-12.2787,49.2917,23.01,76,8,8.81,MG,1691261341
189,meadow lakes,61.6247,-149.6011,19.6,70,20,0.45,US,1691261925
190,puerto ayora,-0.7393,-90.3518,28.98,90,36,4.47,EC,1691261925
191,la ligua,-32.4524,-71.2311,15.11,73,88,2.75,CL,1691261925
192,ambalangoda,6.2355,80.0538,26.62,84,76,5.14,LK,1691261925
193,youhao,47.8667,128.8333,11.28,93,0,1.12,CN,1691261925
194,flin flon,54.7682,-101.865,22.91,49,75,5.66,CA,1691261925
195,fort mcmurray,56.7268,-111.381,21.73,64,0,3.09,CA,1691261865
196,lensk,60.7253,114.9278,16.35,92,94,0.98,RU,1691261334
197,blaenavon,51.774,-3.0854,14.38,83,7,7.1,GB,1691261926
198,pekalongan,-6.8886,109.6753,24.89,78,39,2.21,ID,1691261926
199,altay,47.8667,88.1167,18.26,52,3,2.04,CN,1691261926
200,krasnyy yar,46.5331,48.3456,28.96,36,0,3.69,RU,1691261926
201,fauske,67.2588,15.3918,13.02,81,100,1.39,NO,1691261926
202,novi pazar,43.1367,20.5122,15.74,98,100,0.81,RS,1691261927
203,kota belud,6.351,116.4305,24.98,90,78,1.78,MY,1691261927
204,havre,49.5833,0.3333,16.22,88,100,14.4,FR,1691261927
205,lamu,-2.2717,40.902,25.12,82,100,7.22,KE,1691261329
206,cockburn town,21.4612,-71.1419,29.22,83,0,8.83,TC,1691261927
207,surgut,61.25,73.4167,16.1,77,0,3.13,RU,1691261927
208,berezovyy,51.6667,135.7,12.39,73,15,1.73,RU,1691261927
209,nambucca heads,-30.65,153.0,11.2,86,5,2.55,AU,1691261928
210,mount isa,-20.7333,139.5,13.87,58,0,2.57,AU,1691261337
211,filadelfia,39.9523,-75.1638,30.74,57,75,3.09,US,1691261928
212,palmer,42.1584,-72.3287,29.26,50,75,3.09,US,1691261732
213,znamenskoye,57.1281,73.8282,17.99,85,66,2.84,RU,1691261928
214,vila velha,-20.3297,-40.2925,25.97,78,0,6.17,BR,1691261928
215,xinqing,48.2333,129.5,10.67,92,0,0.71,CN,1691261929
216,tierra colorada,17.1667,-99.5833,33.31,50,100,1.91,MX,1691261929
217,rio san juan,19.6439,-70.0763,35.09,71,5,8.55,DO,1691261929
218,vilyuchinsk,52.9306,158.4028,13.15,87,0,3.61,RU,1691261929
219,polyarnyy,69.1989,33.4478,10.94,94,100,6.15,RU,1691261929
220,ancud,-41.8697,-73.8203,9.28,68,34,1.16,CL,1691261930
221,dupnitsa,42.2667,23.1167,24.17,40,3,2.12,BG,1691261930
222,dinguiraye,11.3,-10.7167,24.88,87,36,0.5,GN,1691261930
223,tangalle,6.024,80.7911,27.09,83,100,5.4,LK,1691261353
224,gagarin,55.5529,34.9954,21.37,74,0,3.1,RU,1691261930
225,quibala,-10.7337,14.98,21.33,26,0,1.12,AO,1691261930
226,punta arenas,-53.15,-70.9167,4.83,91,100,13.05,CL,1691261930
227,aras-asan,8.8908,126.3033,25.76,88,88,2.4,PH,1691261931
228,canguaretama,-6.38,-35.1289,27.01,68,65,6.28,BR,1691261731
229,lisala,2.15,21.5167,24.0,78,56,1.02,CD,1691261931
230,bulawayo,-20.15,28.5833,13.65,59,46,4.89,ZW,1691261750
231,"laikit, laikit ii (dimembe)",1.4792,124.9735,21.47,94,20,1.03,ID,1691261931
232,sao joao da barra,-21.6403,-41.0511,27.05,75,0,5.1,BR,1691261931
233,takab,36.4009,47.1133,23.03,34,2,3.17,IR,1691261931
234,bacalar,18.6667,-88.3833,32.06,62,40,5.14,MX,1691261932
235,brisas de zicatela,15.8369,-97.0419,31.38,64,100,3.4,MX,1691261932
236,restrepo,3.822,-76.5224,30.19,60,22,2.47,CO,1691261932
237,skovorodino,53.9833,123.9167,12.02,68,6,0.81,RU,1691261932
238,ca mau,9.1769,105.15,25.69,89,99,1.96,VN,1691261458
239,acapulco de juarez,16.8634,-99.8901,31.62,57,100,2.69,MX,1691261932
240,bamboo flat,11.7,92.7167,28.05,83,40,4.12,IN,1691261932
241,gornopravdinsk,60.05,69.9,15.49,80,68,2.81,RU,1691261933
242,chicoana,-25.1009,-65.5331,24.03,34,0,3.82,AR,1691261457
243,tamanrasset,22.785,5.5228,29.95,30,40,11.32,DZ,1691261933
244,najaf,31.9985,44.3398,38.88,17,0,1.54,IQ,1691261933
245,whitehorse,60.7161,-135.0538,20.43,42,75,6.17,CA,1691261884
246,hobyo,5.3505,48.5268,25.33,81,70,12.42,SO,1691261933
247,jamestown,42.097,-79.2353,24.73,66,100,3.09,US,1691261869
248,rongelap,11.1635,166.8941,28.38,74,62,7.0,MH,1691261814
249,prado,-17.3411,-39.2208,24.04,64,0,3.38,BR,1691261934
250,mutare,-18.9707,32.6709,14.41,82,100,2.87,ZW,1691261934
251,dordrecht,51.81,4.6736,16.16,85,100,1.34,NL,1691261788
252,nuuk,64.1835,-51.7216,8.82,87,47,2.24,GL,1691261934
253,az zuwaytinah,30.9522,20.1202,30.33,44,0,3.55,LY,1691261934
254,mgandu,-5.95,34.1333,20.2,49,71,5.24,TZ,1691261934
255,kincardine,56.0667,-3.7167,14.15,93,100,1.24,GB,1691261460
256,tindouf,27.6711,-8.1474,39.25,15,0,5.14,DZ,1691261935
257,balimila,18.25,82.1333,23.5,90,93,0.97,IN,1691261935
258,khandyga,62.6667,135.6,13.98,71,100,0.59,RU,1691261935
259,kencong,-8.2833,113.3667,22.89,88,98,0.71,ID,1691261935
260,neiva,2.9273,-75.2819,34.94,31,20,5.66,CO,1691261935
261,kayangel,8.0823,134.7173,27.52,77,100,3.42,PW,1691261935
262,hammerfest,70.6634,23.6821,11.25,82,100,7.72,NO,1691261936
263,uige,-7.6087,15.0613,22.54,25,4,1.92,AO,1691261936
264,ambovombe,-25.1667,46.0833,18.55,66,0,6.66,MG,1691261460
265,pont rouge,48.8833,-72.0825,19.16,95,100,3.15,CA,1691261936
266,machico,32.7,-16.7667,25.95,71,20,5.14,PT,1691261936
267,mount gambier,-37.8333,140.7667,6.98,89,90,0.9,AU,1691261422
268,lompoc,34.6391,-120.4579,27.69,100,100,7.2,US,1691261936
269,darhan,49.4867,105.9228,16.62,98,100,2.0,MN,1691261936
270,san patricio,28.017,-97.5169,37.4,37,14,7.59,US,1691261937
271,cabo san lucas,22.8909,-109.9124,35.34,66,75,5.66,MX,1691261237
272,hithadhoo,-0.6,73.0833,27.29,77,100,2.93,MV,1691261937
273,palikir - national government center,6.9248,158.1611,23.41,94,100,0.0,FM,1691261937
274,la ronge,55.1001,-105.2842,23.14,49,40,7.72,CA,1691261937
275,acarau,-2.8856,-40.12,29.52,61,63,8.87,BR,1691261937
276,kondopoga,62.2057,34.2614,18.82,83,95,2.37,RU,1691261938
277,bonthe,7.5264,-12.505,25.37,88,79,4.45,SL,1691261880
278,callao,-12.0667,-77.15,23.16,60,20,5.14,PE,1691261938
279,kalianget,-7.05,113.9333,26.12,80,14,6.07,ID,1691261938
280,tchintabaraden,15.8969,5.7985,27.6,56,100,0.55,NE,1691261938
281,petrozavodsk,61.7849,34.3469,18.7,72,90,3.0,RU,1691261938
282,puerto baquerizo moreno,-0.9,-89.6,26.55,74,75,5.14,EC,1691261939
283,port lincoln,-34.7333,135.8667,11.59,63,100,3.31,AU,1691261939
284,caburan,5.9181,125.6411,26.89,84,100,3.48,PH,1691261939
285,fale old settlement,-9.3852,-171.2468,28.05,77,33,6.31,TK,1691261754
286,newnham,-41.3833,147.1333,5.73,100,100,0.0,AU,1691261939
287,sarmiento,-45.5882,-69.07,9.63,48,3,6.09,AR,1691261939
288,alice springs,-23.7,133.8833,8.75,81,0,0.0,AU,1691261818
289,veraval,20.9,70.3667,27.03,85,100,7.82,IN,1691261940
290,altamont,42.2068,-121.7372,24.88,44,0,0.89,US,1691261940
291,kodinsk,58.6881,99.1844,9.5,85,100,0.93,RU,1691261940
292,lata,40.1629,-8.3327,24.49,37,0,1.92,PT,1691261940
293,atafu village,-8.5421,-172.5159,27.96,77,20,5.45,TK,1691261940
294,hecun,36.5333,114.1111,25.06,85,45,2.1,CN,1691261941
295,whittlesea,-32.1759,26.8244,13.32,35,0,1.66,ZA,1691261941
296,conduaga,8.862,117.4893,26.14,87,51,1.55,PH,1691261941
297,kidal,18.4411,1.4078,30.6,47,100,5.15,ML,1691261379
298,fernandina beach,30.6697,-81.4626,34.43,70,93,4.12,US,1691261878
299,conception bay south,47.4999,-52.9981,19.69,72,14,5.07,CA,1691261941
300,flying fish cove,-10.4217,105.6791,24.82,88,100,6.17,CX,1691261942
301,remire-montjoly,4.9167,-52.2667,32.02,66,0,5.14,GF,1691261844
302,shimoda,34.6667,138.95,25.06,87,10,0.94,JP,1691261445
303,karratha,-20.7377,116.8463,23.12,42,0,3.78,AU,1691261942
304,orcopampa,-15.2661,-72.3417,11.34,48,100,1.23,PE,1691261942
305,chonchi,-42.6128,-73.8092,11.73,75,100,1.53,CL,1691261943
306,mahibadhoo,3.7833,72.9667,28.31,77,100,5.06,MV,1691261943
307,robit,12.0167,39.6333,23.03,65,100,0.43,ET,1691261943
308,nova vicosa,-17.8919,-39.3719,24.78,57,6,4.43,BR,1691261346
309,port hedland,-20.3167,118.5667,21.03,40,100,3.6,AU,1691261944
310,lodeve,43.7167,3.3167,22.79,58,68,7.15,FR,1691261944
311,puerto quijarro,-17.7833,-57.7667,38.37,16,4,1.36,BO,1691261944
312,durango,24.8333,-104.8333,30.31,22,2,6.06,MX,1691261944
313,ad dawadimi,24.5077,44.3924,34.64,13,1,3.42,SA,1691261944
314,vigan,17.5747,120.3869,28.85,76,100,5.8,PH,1691261945
315,korla,41.7597,86.1469,30.25,19,54,3.84,CN,1691261945
316,kalmunai,7.4167,81.8167,27.04,80,100,2.58,LK,1691261945
317,mandeville,18.0417,-77.5071,31.76,48,23,5.33,JM,1691261656
318,santiago de cao,-7.9589,-79.2392,24.07,69,100,5.66,PE,1691261945
319,ankang,32.68,109.0172,23.6,92,100,0.67,CN,1691261946
320,sitka,57.0531,-135.33,19.94,73,40,0.0,US,1691261892
321,simanggang,1.2472,111.4528,25.01,94,100,0.0,MY,1691261946
322,badger,64.8,-147.5333,22.85,61,75,1.54,US,1691261946
323,mbale,1.0821,34.175,19.81,79,73,1.89,UG,1691261946
324,slave lake,55.2834,-114.769,17.99,77,0,2.57,CA,1691261195
325,serres,41.0856,23.5497,26.87,55,1,2.14,GR,1691261947
326,rio gallegos,-51.6226,-69.2181,10.03,46,20,16.98,AR,1691261945
327,saint-philippe,-21.3585,55.7679,21.77,81,87,7.75,RE,1691261947
328,ploneour-lanvern,47.9,-4.2833,16.18,77,100,8.75,FR,1691261947
329,castillos,-34.1667,-53.8333,14.79,51,1,3.54,UY,1691261947
330,hilton head island,32.2163,-80.7526,32.06,73,20,4.12,US,1691261948
331,buctzotz,21.2,-88.7833,36.38,40,68,3.69,MX,1691261948
332,hinton,53.4001,-117.5857,24.27,33,1,1.58,CA,1691261948
333,igarka,67.4667,86.5833,14.7,62,0,2.28,RU,1691261948
334,beledweyne,4.7358,45.2036,27.34,58,39,10.38,SO,1691261460
335,diphu,25.8333,93.4333,24.42,99,100,0.84,IN,1691261949
336,tolanaro,-25.0319,46.9987,20.04,73,20,7.2,MG,1691261949
337,dalandzadgad,43.5708,104.425,25.69,17,57,4.31,MN,1691261949
338,dapa,9.7594,126.0531,27.84,76,83,2.45,PH,1691261949
339,posto fiscal rolim de moura,-13.0833,-62.2667,37.55,21,58,0.85,BR,1691261950
340,xining,36.6167,101.7667,14.72,85,100,2.36,CN,1691261950
341,cidreira,-30.1811,-50.2056,18.67,85,64,3.69,BR,1691261950
342,belyy yar,53.6039,91.3903,17.94,88,0,2.0,RU,1691261950
343,ceeldheer,3.8488,47.1806,24.94,80,20,7.84,SO,1691261950
344,akureyri,65.6835,-18.0878,11.96,76,75,4.12,IS,1691261950
345,pisco,-13.7,-76.2167,21.12,64,0,4.63,PE,1691261666
346,covington,39.0837,-84.5086,31.23,53,0,2.57,US,1691261951
347,nishinoomote,30.7333,131.0,27.86,88,100,11.14,JP,1691261739
348,emirdag,39.0197,31.15,27.6,29,0,1.47,TR,1691261951
349,homer,59.6425,-151.5483,17.8,78,20,1.54,US,1691261814
350,walvis bay,-22.9575,14.5053,13.53,88,0,1.03,NA,1691261951
351,makarov,48.6333,142.8,14.47,85,100,0.55,RU,1691261952
352,zhangjiakou shi xuanhua qu,40.6103,115.0447,22.51,74,100,1.98,CN,1691261952
353,kobelyaky,49.1489,34.1965,25.98,39,1,4.43,UA,1691261952
354,lipljan,42.5217,21.1258,16.18,99,75,1.03,XK,1691261952
355,zeya,53.75,127.2667,13.69,55,0,1.42,RU,1691261952
356,port-vila,-17.7338,168.3219,21.78,94,75,2.06,VU,1691261437
357,balkashino,52.5167,68.7667,19.02,72,30,2.37,KZ,1691261953
358,baki,-7.6128,110.7839,22.07,88,45,2.28,ID,1691261953
359,shima,24.4478,117.8111,32.01,78,99,2.11,CN,1691261953
360,pieksamaki,62.3,27.1333,15.16,90,100,1.72,FI,1691261953
361,sur,22.5667,59.5289,30.43,62,100,5.62,OM,1691261953
362,tazovsky,67.4667,78.7,14.21,57,6,2.6,RU,1691261954
363,usogorsk,63.4106,48.6872,16.53,94,32,2.25,RU,1691261451
364,askoy,60.4092,5.226,15.53,45,20,5.14,NO,1691261954
365,senanga,-16.1167,23.2667,16.17,35,0,2.93,ZM,1691261954
366,port shepstone,-30.7414,30.455,17.7,77,0,6.38,ZA,1691261954
367,cidade velha,14.9167,-23.6167,30.26,58,0,6.69,CV,1691261954
368,kolokani,13.5728,-8.0339,28.84,58,100,1.12,ML,1691261954
369,mumford,5.2618,-0.759,23.9,93,95,4.46,GH,1691261955
370,al jawf,29.5,38.75,30.77,15,0,3.86,SA,1691261955
371,st. paul,44.9444,-93.0933,29.93,59,75,1.54,US,1691261727
372,midvagur,62.0511,-7.1939,12.46,82,20,2.57,FO,1691261955
373,yeppoon,-23.1333,150.7333,13.88,83,0,4.86,AU,1691261955
374,hola,51.5377,23.1902,22.1,76,6,3.3,PL,1691261955
375,santa cruz del sur,20.7147,-77.9956,31.53,63,1,2.85,CU,1691261955
376,miracema do tocantins,-9.5618,-48.3967,37.02,22,66,2.95,BR,1691261896
377,ma'an,26.9775,110.7211,26.29,89,93,1.6,CN,1691261956
378,ulmeni,47.4667,23.3,27.3,33,0,9.69,RO,1691261956
379,fomboni,-12.28,43.7425,25.67,68,0,3.73,KM,1691261956
380,severo-yeniseyskiy,60.3725,93.0408,8.07,99,100,1.5,RU,1691261956
381,mount dora,28.8025,-81.6445,36.59,43,84,2.98,US,1691261706
382,tarauaca,-8.1614,-70.7656,35.73,31,96,1.23,BR,1691261957
383,lodwar,3.1191,35.5973,31.43,32,80,1.52,KE,1691261957
384,ujae,8.9322,165.7642,28.65,74,100,7.38,MH,1691261957
385,djambala,-2.5447,14.7533,26.39,36,14,2.15,CG,1691261957
386,grand falls-windsor,48.9332,-55.6649,25.84,43,58,1.34,CA,1691261928
387,aginskoye,51.1,114.53,15.06,94,100,2.51,RU,1691261957
388,elk,53.8282,22.3647,17.54,97,100,4.09,PL,1691261958
389,narvik,68.4384,17.4272,12.67,85,95,1.79,NO,1691261958
390,bu'aale,1.0833,42.5833,23.93,73,73,5.26,SO,1691261958
391,kalmar,56.6616,16.3616,17.86,84,100,2.57,SE,1691261958
392,san pedro pochutla,15.7333,-96.4667,33.17,56,100,3.14,MX,1691261174
393,lerwick,60.1545,-1.1494,13.0,72,100,1.05,GB,1691261958
394,bibai,43.3247,141.8586,22.77,99,100,2.23,JP,1691261959
395,lazaro cardenas,17.9583,-102.2,31.43,58,94,0.68,MX,1691261881
396,payakumbuh,-0.2202,100.6308,21.73,97,60,0.73,ID,1691261959
397,itoman,26.1247,127.6694,27.43,96,100,18.52,JP,1691261959
398,ponta delgada,37.7333,-25.6667,23.4,68,75,2.06,PT,1691261959
399,huancavelica,-12.7667,-74.9833,7.66,51,98,4.0,PE,1691261960
400,cajamarca,-7.1638,-78.5003,22.04,33,40,4.63,PE,1691261960
401,pugachev,52.0133,48.8025,26.18,47,0,4.21,RU,1691261960
402,axim,4.8699,-2.2405,24.35,91,100,3.22,GH,1691261960
403,arauca,7.0847,-70.7591,30.98,66,40,1.03,CO,1691261432
404,ome,35.7839,139.2431,27.7,81,0,2.57,JP,1691261960
405,tres arroyos,-38.3739,-60.2798,14.65,36,100,5.64,AR,1691261296
406,betio village,1.358,172.9211,28.02,75,14,5.07,KI,1691261961
407,ketchikan,55.3422,-131.6461,20.26,64,0,3.09,US,1691261961
408,batamshinskiy,50.5594,58.2747,21.37,56,0,3.67,KZ,1691261961
409,manghit,42.1156,60.0597,26.99,30,86,2.64,UZ,1691261961
410,hosakote,14.2769,77.1699,23.47,79,12,7.79,IN,1691261961
411,guatire,10.4762,-66.5427,33.44,78,62,1.49,VE,1691261961
412,bikenibeu village,1.3673,173.1241,27.98,78,75,2.06,KI,1691261424
413,mareeba,-17.0,145.4333,16.4,88,85,0.8,AU,1691261962
414,laguna,38.421,-121.4238,34.49,45,0,2.06,US,1691261735
415,ugoofaaru,5.6667,73.0,28.19,77,88,5.77,MV,1691261962
416,bakchar,57.0186,82.0711,12.95,75,0,1.97,RU,1691261962
417,zaragoza,41.6561,-0.8773,28.25,23,0,7.72,ES,1691261962
418,presque isle,46.6811,-68.0159,22.32,82,100,5.66,US,1691261962
419,debica,50.0515,21.4114,22.75,93,9,1.29,PL,1691261963
420,la'ie,21.6477,-157.9253,27.98,73,37,0.89,US,1691261963
421,alofi,-19.0595,-169.9187,21.94,100,100,2.06,NU,1691261963
422,ad douiem,14.0012,32.3116,27.66,60,100,7.93,SD,1691261963
423,afif,23.9065,42.9172,31.7,7,7,4.49,SA,1691261963
424,smirnykh,49.75,142.8333,12.86,94,100,0.72,RU,1691261428
425,krasnyy chikoy,50.3643,108.7512,12.02,96,100,1.23,RU,1691261964
426,soligalich,59.0778,42.2864,17.09,86,18,1.98,RU,1691261964
427,slawno,54.3628,16.6789,16.23,82,100,2.95,PL,1691261509
428,tidjikja,18.5564,-11.4271,38.66,16,100,6.34,MR,1691261964
429,kuching,1.55,110.3333,28.9,88,20,1.54,MY,1691261721
430,sola,-13.8833,167.55,24.95,81,73,6.92,VU,1691261447
431,loango,-4.6719,11.8312,21.04,86,0,3.05,CG,1691261965
432,kamaishi,39.2667,141.8833,24.48,87,16,2.72,JP,1691261965
433,aoulef,26.9667,1.0833,42.8,6,0,3.56,DZ,1691261965
434,qianzhou,28.3167,109.7167,26.31,89,73,0.81,CN,1691261965
435,nangong,37.3581,115.3744,23.51,95,0,3.63,CN,1691261965
436,itaituba,-4.2761,-55.9836,36.09,46,40,2.57,BR,1691261289
437,caleta de carquin,-11.0925,-77.6267,21.08,68,71,4.46,PE,1691261454
438,paseh,-7.1026,107.7641,16.75,96,14,1.55,ID,1691261966
439,carnarvon,-24.8667,113.6333,18.73,80,2,3.46,AU,1691261966
440,ar ruways,24.1103,52.7306,32.96,70,9,3.54,AE,1691261966
441,westport,41.1415,-73.3579,30.1,61,0,4.63,US,1691261702
442,bardai,11.65,7.2333,23.03,87,100,3.09,NG,1691261375
443,toliara,-23.35,43.6667,21.03,76,1,1.7,MG,1691261738
444,brezina,33.0989,1.2608,33.07,15,0,0.97,DZ,1691261967
445,waddan,29.1614,16.139,29.76,60,0,10.71,LY,1691261968
446,lycksele,64.5954,18.6735,18.93,59,100,0.51,SE,1691261968
447,dawei,14.0833,98.2,25.15,92,100,1.95,MM,1691261968
448,wewak,-3.5534,143.6268,24.94,87,100,2.8,PG,1691261968
449,tralee,52.2704,-9.7026,14.23,89,95,4.04,IE,1691261968
450,urucara,-2.5364,-57.76,37.26,27,83,1.76,BR,1691261969
451,sant'antioco,39.0664,8.4522,23.03,63,4,11.28,IT,1691261969
452,luena,-11.7833,19.9167,15.29,36,0,2.32,AO,1691261969
453,anamur,36.0751,32.8369,28.75,74,0,6.45,TR,1691261969
454,chamical,-30.36,-66.314,22.55,39,0,4.87,AR,1691261969
455,abalak,58.1286,68.5944,17.51,96,91,2.14,RU,1691261969
456,morehead city,34.7229,-76.726,30.02,79,100,3.09,US,1691261970
457,ratnagiri,16.9833,73.3,26.55,85,100,4.16,IN,1691261970
458,robore,-18.3333,-59.75,36.37,17,2,3.9,BO,1691261970
459,samarinda,-0.5,117.15,23.55,99,35,0.99,ID,1691261970
460,konarka,19.9,86.1167,27.22,78,96,4.94,IN,1691261970
461,puerto aysen,-45.4,-72.7,6.35,93,99,2.14,CL,1691261971
462,tayshet,55.9342,98.0044,8.55,80,21,1.77,RU,1691261971
463,kruisfontein,-34.0033,24.7314,18.82,38,8,3.18,ZA,1691261938
464,corocotan,7.4,125.7667,27.01,92,94,0.36,PH,1691261971
465,la passe,45.5549,-0.8967,19.13,73,5,8.82,FR,1691261971
466,ust'-ilimsk,58.0006,102.6619,7.06,95,1,1.32,RU,1691261754
467,thetford-mines,46.0937,-71.3054,20.06,73,55,5.44,CA,1691261971
468,katsuura,35.1333,140.3,26.15,88,2,4.21,JP,1691261972
469,santa ana de yacuma,-13.75,-65.4333,35.97,38,40,3.09,BO,1691261972
470,selkirk,50.1436,-96.8845,29.48,47,100,3.64,CA,1691261972
471,naifaru,5.4444,73.3657,28.02,78,100,5.53,MV,1691261972
472,qamdo,31.1667,97.2333,6.41,94,100,2.05,CN,1691261972
473,shengli,37.4564,118.4856,24.69,79,10,5.65,CN,1691261972
474,bibiani,6.4635,-2.3194,22.66,98,54,1.15,GH,1691261973
475,barra dos coqueiros,-10.9089,-37.0386,27.01,69,40,6.17,BR,1691261973
476,moyale,3.5167,39.0584,23.12,49,98,4.89,KE,1691261973
477,frontera,26.9333,-101.45,36.85,35,0,2.68,MX,1691261973
478,votkinsk,57.0486,53.9872,22.1,85,6,2.9,RU,1691261973
479,tharangambadi,11.0319,79.8528,29.04,75,99,6.24,IN,1691261973
480,placido de castro,-10.3353,-67.1856,38.45,21,6,0.81,BR,1691261974
481,oriximina,-1.7656,-55.8661,33.08,43,94,0.95,BR,1691261974
482,kristiansund,63.1115,7.732,14.36,58,75,2.57,NO,1691261974
483,pokachi,61.7198,75.3683,16.26,56,5,1.83,RU,1691261974
484,deder,9.3167,41.45,16.86,68,76,2.77,ET,1691261974
485,gevrai,19.2667,75.75,24.81,77,96,6.38,IN,1691261975
486,callaway,30.153,-85.5699,32.76,79,100,7.2,US,1691261975
487,pagar alam,-4.0167,103.2667,19.22,95,7,0.99,ID,1691261842
488,les cayes,18.2,-73.75,32.21,58,1,5.25,HT,1691261975
489,yamada,39.4667,141.95,24.12,86,30,1.81,JP,1691261975
490,nassau,40.7507,-73.5829,30.92,56,40,0.89,US,1691261975
491,mastic beach,40.7668,-72.8521,31.1,65,20,3.58,US,1691261976
492,kabo,7.6994,18.629,22.8,94,100,1.25,CF,1691261976
493,bumba,2.1833,22.4667,24.1,82,82,0.72,CD,1691261976
494,iwanai,42.9744,140.5089,22.73,99,100,0.98,JP,1691261915
495,yur'yev-pol'skiy,56.5,39.6833,20.84,66,0,1.58,RU,1691261976
496,shenkursk,62.1091,42.896,16.57,84,0,2.38,RU,1691261976
497,artashat,39.9614,44.5445,29.12,46,2,2.3,AM,1691261976
498,shimanovsk,52.0,127.7,14.27,58,4,2.2,RU,1691261977
499,srandakan,-7.9386,110.2506,22.78,87,17,2.6,ID,1691261977
500,capo d'orlando,38.1435,14.7305,24.67,64,61,6.92,IT,1691261977
501,arawa,-6.2132,155.5367,23.7,92,100,3.13,PG,1691261977
502,nangwa,-4.4667,35.45,12.61,79,95,2.13,TZ,1691261977
503,mangrol,21.1167,70.1167,27.0,85,100,7.89,IN,1691261977
504,mili,6.0815,171.735,27.87,79,71,4.98,MH,1691261978
505,murray bridge,-35.1167,139.2667,8.52,87,62,0.13,AU,1691261978
506,gizo,-8.103,156.8419,25.77,78,100,8.78,SB,1691261978
507,jaunpiebalga,57.1833,26.05,15.69,98,100,2.06,LV,1691261778
508,keningau,5.3378,116.1602,22.51,98,100,0.41,MY,1691261978
509,aswan,24.0934,32.907,39.61,11,0,4.63,EG,1691261978
510,marang,5.2056,103.2059,25.95,88,6,1.88,MY,1691261979
511,zlynka,52.4267,31.7378,25.91,58,0,4.91,RU,1691261979
512,sosnogorsk,63.6023,53.8817,16.5,97,59,0.83,RU,1691261979
513,shingu,33.7333,135.9833,26.04,91,89,1.67,JP,1691261979
514,kavieng,-2.5744,150.7967,26.75,80,100,5.13,PG,1691261979
515,christchurch,-43.5333,172.6333,8.84,81,100,2.57,NZ,1691261622
516,shakhtersk,48.0625,38.5167,26.18,48,0,4.3,UA,1691261718
517,tromso,69.6496,18.957,13.01,71,75,1.54,NO,1691261980
518,kirensk,57.7853,108.1119,14.83,79,100,1.45,RU,1691261980
519,talcahuano,-36.7167,-73.1167,12.82,82,75,4.12,CL,1691261980
520,page,36.9147,-111.4558,32.28,15,0,4.47,US,1691261845
521,keflavik,64.0049,-22.5624,13.95,100,100,6.17,IS,1691261980
522,hit,33.6416,42.8251,37.11,15,0,4.1,IQ,1691261981
523,dzilam gonzalez,21.2833,-88.9333,33.09,55,78,4.66,MX,1691261981
524,afaahiti,-17.75,-149.2833,24.93,76,18,1.24,PF,1691261981
525,mount pearl,47.5166,-52.7813,19.36,73,75,5.14,CA,1691261981
526,kotido,2.9806,34.1331,23.54,56,100,2.02,UG,1691261981
527,aral,40.5156,81.2636,30.21,23,90,3.37,CN,1691261982
528,dauphin,51.1494,-100.0502,25.08,50,40,1.54,CA,1691261981
529,queenstown,-31.8976,26.8753,13.93,33,0,2.72,ZA,1691261930
530,faranah,10.0404,-10.7434,24.12,93,37,1.15,GN,1691261982
531,viveiro,43.6623,-7.5934,19.57,86,99,3.72,ES,1691261982
532,north platte,41.1239,-100.7654,28.95,51,0,8.05,US,1691261983
533,minas de marcona,-15.2119,-75.1103,17.78,58,7,3.92,PE,1691261983
534,kiruna,67.8557,20.2251,11.51,62,48,3.09,SE,1691261983
535,sharm el-sheikh,27.8518,34.305,36.08,19,0,2.57,EG,1691261879
536,tshikapa,-6.4167,20.8,26.27,29,0,1.37,CD,1691261983
537,akjoujt,19.6969,-14.4164,41.93,8,21,5.34,MR,1691261984
538,vernon,50.2581,-119.2691,29.23,28,100,1.03,CA,1691261984
539,calca,-13.3333,-71.95,18.64,47,84,3.86,PE,1691261984
540,vinh yen,21.31,105.5967,25.97,95,100,0.57,VN,1691261984
541,viqueque,-8.8673,126.3658,21.56,86,53,0.89,TL,1691261984
542,north bend,43.4065,-124.2243,24.59,82,75,6.17,US,1691261984
543,fortuna,40.5982,-124.1573,21.63,79,0,4.63,US,1691261985
544,kolyvan',55.3053,82.7391,16.79,71,5,3.4,RU,1691261985
545,dalbandin,28.8947,64.4101,34.93,9,31,2.88,PK,1691261985
546,uklana,29.5167,75.8667,31.49,59,100,2.5,IN,1691261985
547,la rinconada,37.4873,-5.9826,38.47,16,0,2.57,ES,1691261985
548,langepas,61.2544,75.2124,15.93,56,0,2.77,RU,1691261985
549,ibimirim,-8.5406,-37.6903,31.14,31,12,5.5,BR,1691261986
550,molchanovo,57.5817,83.7692,12.49,73,42,2.38,RU,1691261986
551,araripina,-7.5761,-40.4983,30.89,27,62,3.94,BR,1691261986
552,dubbo,-32.25,148.6167,7.07,93,100,5.66,AU,1691261986
553,corvallis,44.5646,-123.262,26.26,62,100,3.09,US,1691261919
554,timbuktu,16.7735,-3.0074,36.91,31,76,4.87,ML,1691261986
555,kavaratti,10.5669,72.642,28.22,77,100,8.59,IN,1691261987
556,lugazi,0.3772,32.9197,18.27,78,34,1.18,UG,1691261987
557,mbaiki,3.8678,17.9892,24.69,78,100,0.87,CF,1691261987
558,ola,59.5833,151.2833,11.28,65,10,3.67,RU,1691261883
559,pingzhuang,42.0372,119.2889,17.02,76,0,2.62,CN,1691261987
